{ "_id" : { "$oid" : "54835792ae25b0bb755f5a00" }, "name" : "Аджигардак", "id" : "x00001", "user" : { "name" : "baio" }, "latitude" : 55.000414, "longitude" : 57.265278 }
{ "_id" : { "$oid" : "548357f3ae25b0bb755f5a01" }, "name" : "Ак - Йорт", "id" : "x00002", "user" : { "name" : "baio" }, "latitude" : 54.731646, "longitude" : 56.027202 }
{ "_id" : { "$oid" : "54835826ae25b0bb755f5a02" }, "name" : "Арский камень", "id" : "x00003", "user" : { "name" : "baio" }, "latitude" : 53.866991, "longitude" : 58.267254 }
{ "_id" : { "$oid" : "54835849ae25b0bb755f5a03" }, "name" : "Мраткино", "id" : "x00004", "user" : { "name" : "baio" }, "latitude" : 54.002523, "longitude" : 58.441746 }
{ "_id" : { "$oid" : "5483587cae25b0bb755f5a04" }, "name" : "Павловский парк", "id" : "x00006", "user" : { "name" : "baio" }, "latitude" : 55.45363, "longitude" : 56.51789 }
{ "_id" : { "$oid" : "548358afae25b0bb755f5a05" }, "name" : "Павловский Парк", "id" : "x00007", "user" : { "name" : "baio" }, "latitude" : 55.45363, "longitude" : 56.51789 }
{ "_id" : { "$oid" : "54835924ae25b0bb755f5a06" }, "name" : "Olympic Park (УФА)", "id" : "x00008", "user" : { "name" : "baio" }, "latitude" : 54.736991, "longitude" : 56.030684 }
{ "_id" : { "$oid" : "54835963ae25b0bb755f5a07" }, "name" : "Белокуриха", "id" : "x00006", "user" : { "name" : "baio" }, "latitude" : 51.995842, "longitude" : 84.983867 }
{ "_id" : { "$oid" : "548359afae25b0bb755f5a09" }, "name" : "ГЛК Канатка (Златоуст)", "id" : "x00010", "user" : { "name" : "baio" }, "latitude" : 55.147456, "longitude" : 59.648407 }
{ "_id" : { "$oid" : "548359ccae25b0bb755f5a0a" }, "name" : "Евразия (Куса)", "id" : "x00011", "user" : { "name" : "baio" }, "latitude" : 55.386483, "longitude" : 59.404464 }
